timestamp,altitude,heading,vertical_speed,velocity,roll,pitch,yaw,g_force
2026-04-08T12:00:99,1587.0676275484134,89.42416667947118,125.82637495369971,114.16287111860936,-0.6434448328882025,0.12699662948571033,90.0,1.0
2026-04-08T12:00:09,1498.3969825351405,88.09509146673,73.41416733347705,113.429955185371,-3.9297165017024485,-1.1522182212813754,90.0,1.0
2026-04-08T10:30:35,1475.0,136.2552921556507,-427.8898995261248,109.5,1.2879185127019568,-3.7,135.0,1.0
2026-04-08T10:50:18,3003.5501012039203,54.0,-19.15694740690913,154.63509936502027,-22.345879595689443,1.5743848865625032,90.0,1.2
2026-04-08T10:50:03,2965.8458465995386,84.0,7.329684957754459,146.92757924752365,-23.28128111365992,-0.1067894041747599,90.0,1.2
2026-04-08T11:50:37,1984.9784042598878,95.44326441928267,-248.61707296447676,162.3198630221846,22.911641624533388,13.727926704820163,96.36523084489038,1.680672825902485
2026-04-08T10:50:75,3013.146477745288,300.0,5.0220533388202995,142.38893156071668,-22.11022018857448,-1.336013046388385,90.0,1.2
2026-04-08T11:20:23,533.2890729573536,137.9530287218416,-150.51329964113887,52.89385809281053,-1.7774444437794914,-3.0,135.0,1.0
2026-04-08T10:50:17,3000.8902246634602,56.0,45.32789745705725,141.7560196904835,-18.611565895268704,1.865515710868956,90.0,1.2
2026-04-08T10:50:26,3024.14677929477,38.0,41.18371350174331,154.737165791279,-23.766220958948704,0.011941678230663388,90.0,1.2
2026-04-08T10:30:09,1865.0,138.68762916249045,-379.0801473088147,117.3,-0.28223463554450223,-3.18,135.0,1.0
2026-04-08T10:20:17,5081.397954637923,89.33696041311201,2.9964390618034713,192.80233645545232,-0.7808265088718529,-0.056810537633923186,90.0,1.0
2026-04-08T10:40:16,336.0,135.83390401472363,-316.0,70.4,0.5916699634616416,-5.0,135.0,1.0
2026-04-08T11:20:19,500.7657267833953,136.29014474710496,-65.55931552417363,47.03150096521476,0.29751406050688667,-3.0,135.0,1.0
2026-04-08T10:50:88,2955.576460072242,274.0,5.369188670632887,158.5136936783999,-15.423095222989478,1.694969493185213,90.0,1.2
2026-04-08T11:20:89,470.5374667936435,138.04697547378305,-188.86045428459607,52.260289984849635,2.316391782933737,-3.0,135.0,1.0
2026-04-08T11:40:81,222.0396209980015,1.049023876886186,-56.865468194270676,80.12524178139165,2.411759822483054,2.9934943972093144,165.78094806424843,1.0
2026-04-08T10:20:38,5020.004979188443,88.53138458735314,55.67226272514861,167.1151214520292,2.5904325824772396,0.8704071745757629,90.0,1.0
2026-04-08T11:40:55,238.11781296117152,142.62568312279168,124.93444479959055,110.15688789995268,3.784082426307867,-2.9544413596245827,354.5087087282878,1.0
2026-04-08T11:40:14,216.53844879347906,99.43228970615318,109.80416493217245,95.31245381019797,0.13205071485167252,0.9784802592052899,320.895528340478,1.0
2026-04-08T11:30:37,11834.805274749746,91.18406965162774,4.373744832082394,215.67543101746014,-0.6796778806252886,-0.6327779362140158,90.0,1.0
2026-04-08T10:40:98,8.0,136.53204136521765,-398.0,30.0,-0.7802375220532776,-5.0,135.0,1.2
2026-04-08T10:50:52,3042.0584405950963,346.0,33.7463984530001,141.4598085123533,-16.495691235172377,1.658454062186805,90.0,1.2
2026-04-08T12:00:89,1406.5513765341268,91.8078205889195,48.52755138440213,131.25853204171545,-0.26046694335584863,-1.8776794462844555,90.0,1.0
2026-04-08T12:00:01,1533.430279768407,90.79691937263051,65.59127947140155,123.93834540269798,-3.958862966908276,-2.434754387352209,90.0,1.0
2026-04-08T10:20:65,4961.176498142873,90.834405381781,-39.11523335714635,171.45593746261466,1.4939247552955752,-1.5746933030118115,90.0,1.0
2026-04-08T10:50:81,2999.6855813038765,288.0,4.007632547442199,150.4830687530907,-17.360609537211783,1.4197460143979406,90.0,1.2
2026-04-08T10:00:87,14.145988130988604,217.52299039566685,0.0,2.6461494272741666,-1.566511989180634,-0.6006929255560034,299.61252701862,1.0
2026-04-08T12:00:87,1456.5950635508634,92.14667862809313,64.95249531063519,120.15588905708191,2.608196001167368,-0.5069224256212634,90.0,1.0
2026-04-08T12:00:21,1534.57478006055,90.46182259680032,-157.66061518549486,105.33991129627108,-3.70294236131806,2.5590067381860155,90.0,1.0
2026-04-08T10:20:74,4936.805010905036,90.03985921349596,-81.47325839827408,174.14555675162356,1.464981044792002,-1.791985660818805,90.0,1.0
2026-04-08T11:00:75,2974.0266789400853,240.0,10.09391115914947,145.45397680674654,24.75951603032936,1.1764079185030702,90.0,1.2
2026-04-08T12:00:30,1540.4598644214068,89.09169818505465,104.71054199518073,108.82102385907355,-0.3287823410567148,-0.9500156493031797,90.0,1.0
2026-04-08T11:20:63,467.72207741990997,139.0190592646263,-161.02334945442925,48.556512511201646,2.839802560911952,-3.0,135.0,1.0
2026-04-08T11:00:97,2978.4831645098566,284.0,-12.857454399320389,145.99583373504706,17.421488149954982,-1.7629176475729684,90.0,1.2
2026-04-08T11:30:56,11897.541069387395,90.97015516407656,50.5364210272285,195.49245477732106,1.2253197122070665,0.6996056005083713,90.0,1.0
2026-04-08T10:00:99,8.435726833526722,303.2380436223605,0.0,5.106866508193352,1.6330699769320862,-0.8249864959238069,8.699669152097687,1.0
2026-04-08T11:30:39,11503.152123410837,91.93725895243865,62.44417903195105,216.3464327380958,-1.2033184563500274,0.25752761780580924,90.0,1.0
2026-04-08T10:10:17,153.0,90.876799274753,673.2578152146064,58.5,0.6684742970860618,5.85,90.0,1.1
2026-04-08T11:10:30,3989.162095904115,92.83506695607477,-75.10239585122599,246.01703531313927,-1.7504702587483223,-1.6840567414949112,90.0,1.0
2026-04-08T10:40:40,240.0,134.0800990136642,-340.0,56.0,-1.734445073537299,-5.0,135.0,1.0
2026-04-08T11:50:57,2010.7233457950147,221.04894950248442,226.96619008482492,126.42777132667844,-14.579828343827243,-12.449066399882074,212.3403737732089,1.6797993561499451
2026-04-08T11:30:17,11612.80511925989,88.67616371106985,-5.18319671855798,195.80086257140954,0.5294973736760973,0.03299064638861271,90.0,1.0
2026-04-08T10:10:14,126.00000000000001,88.68633634905909,589.7394623741981,57.0,1.445268752689576,5.7,90.0,1.1
2026-04-08T11:10:03,4132.382473574899,85.04827240730025,-26.55607189078144,219.62793022887826,-0.5510121640291428,-0.995783099993599,90.0,1.0
2026-04-08T10:50:72,2982.7522497590667,306.0,-7.22647782920447,145.14858670422592,-19.70841127570782,0.7916782362982775,90.0,1.2
2026-04-08T11:50:21,2101.5998847675237,126.66291599025094,-483.5436216080562,127.23127943424673,-11.930063902521148,6.506169251614132,176.62945498931126,2.0877721625485095
2026-04-08T11:20:97,480.4714584627062,136.41177486301382,-79.43528760261896,52.14892471572644,1.3756691094941722,-3.0,135.0,1.0
2026-04-08T11:10:49,4117.663768439396,87.43359881529545,-62.31882645683016,236.52187079023872,0.37043443703983314,-0.6645133598920254,90.0,1.0
2026-04-08T10:30:00,2000.0,138.00945062471138,-372.48765876932686,120.0,-2.5078568763644618,-3.0,135.0,1.0
2026-04-08T10:50:63,2950.53091634716,324.0,6.443031336739139,155.74637170956876,-23.923859071230876,-0.36081593966300574,90.0,1.2
2026-04-08T12:00:16,1403.5838126535666,92.50692585453565,190.57685039825947,127.53259491879754,-2.933354602999259,-0.35298398856800617,90.0,1.0
2026-04-08T11:40:69,191.94757724688324,11.838996439127385,-8.21383632445253,87.07737945591117,2.3074004373292647,0.056989101365145345,23.012432935692093,1.0
2026-04-08T10:00:36,9.286229064928692,48.13091602178051,0.0,16.923011866194816,-0.6486944332642177,-0.34975744809064535,222.88111036118946,1.0
2026-04-08T11:20:06,508.74990520265635,132.15785650192922,-180.42361947002263,47.08831461537481,-2.053453465179676,-3.0,135.0,1.0
2026-04-08T10:40:32,272.0,136.95615358406863,-332.0,60.8,-1.3743653609086963,-5.0,135.0,1.0
2026-04-08T11:50:49,2040.912558892572,337.83588208271476,250.51049765021355,129.3520439086593,8.906069572871935,6.375230127274602,289.3513758542769,1.6185724003942992
2026-04-08T12:00:96,1554.479412373553,90.11124079954331,-32.54101370102484,122.35461580053796,0.9662303776135817,2.6434224612519106,90.0,1.0
2026-04-08T11:50:66,1929.2769921750723,321.77375246277813,184.78142973040326,146.75363139375673,17.15475712844696,-10.864303078929229,342.9500179118889,1.9805560131582396
2026-04-08T10:20:28,5066.963115770566,91.38652092081621,95.39525333876051,188.61474223085102,1.395519165912857,1.0277299887253322,90.0,1.0
2026-04-08T11:30:68,11811.211549882753,89.59539327767159,93.69482200020764,212.2395364474445,1.3939914282028294,-0.9990233091011305,90.0,1.0
2026-04-08T11:00:61,3028.688360290527,212.0,-4.1000902552732725,144.20272994601126,21.691605784404295,-1.0419370839306574,90.0,1.2
2026-04-08T10:00:98,9.186594542881497,94.36751535633951,0.0,2.547115924581772,-1.8178618023805808,1.3799877690652704,207.79509513433953,1.0
2026-04-08T11:00:47,3049.660619085545,184.0,17.485533074147483,157.23255093067257,17.111090110677882,-1.9262280854955547,90.0,1.2
2026-04-08T11:30:06,12297.417074677902,88.83564940628739,41.19113147190595,190.54424141592446,-0.7670800327224376,-0.21304009367707444,90.0,1.0
2026-04-08T11:10:64,4150.195040735712,86.8024658695892,96.4356321573942,225.72397520275837,-1.2751910342768533,-1.708939216497447,90.0,1.0
2026-04-08T11:10:26,3887.6935439427066,86.765851059158,-38.553846583149976,225.53650038572027,1.7794124620667078,-1.2022911122270057,90.0,1.0
2026-04-08T10:40:21,316.0,136.44402712585264,-321.0,67.4,-1.9919029557617827,-5.0,135.0,1.0
2026-04-08T10:40:28,288.0,134.4066464391738,-328.0,63.2,-0.48892428266795784,-5.0,135.0,1.0
2026-04-08T10:40:24,304.0,134.4490208554483,-324.0,65.6,-1.629813036799007,-5.0,135.0,1.0
2026-04-08T10:40:00,400.0,133.73652558020797,-300.0,80.0,0.1398122779230473,-5.0,135.0,1.0
2026-04-08T10:30:38,1430.0,139.15317947232884,-358.278827542242,108.6,-1.5285558945122422,-3.76,135.0,1.0
2026-04-08T11:50:16,2035.8627837446907,283.02544322146395,452.34852664654227,142.26679623271997,-13.269219409105755,5.0599122416733735,286.8086855324895,1.7633669872565658
2026-04-08T10:10:79,711.0,87.86526943281429,648.9010245352948,89.5,1.8508211857580532,8.95,90.0,1.1
2026-04-08T11:00:54,3020.5684723962277,198.0,39.56362783455822,157.47111713095356,20.550804511236443,0.1378052428374983,90.0,1.2
2026-04-08T10:10:19,171.0,88.50552399009601,698.521182833824,59.5,-2.995971364609338,5.95,90.0,1.1
2026-04-08T11:20:38,505.3402060487381,132.17084266816812,-62.49074432868264,47.074062230241395,1.1501203399162545,-3.0,135.0,1.0
2026-04-08T11:40:40,229.26526938878482,58.76064560760915,60.6557081910359,95.53010961303465,-0.985860146941901,1.3739585502914027,200.89995368866778,1.0
2026-04-08T11:10:68,3824.8870710532,86.30172609631701,37.48035113513296,258.08137594578386,-0.5355274387634168,-0.0039014333608258234,90.0,1.0
2026-04-08T11:20:07,544.1491107858958,137.0168823459883,-139.13151055339395,43.536815876704914,2.6916679492226185,-3.0,135.0,1.0
2026-04-08T10:10:29,261.0,86.29975825435221,670.3932905486217,64.5,-2.683572897551298,6.45,90.0,1.1
2026-04-08T11:20:84,535.3241867343145,131.76123728618757,-136.7850927951538,44.73811180592204,-0.5897398554895119,-3.0,135.0,1.0
2026-04-08T10:50:24,2984.691769665023,42.0,-30.44830679123266,154.43640536205552,-16.742035707243023,1.8028223751283,90.0,1.2
2026-04-08T10:10:68,612.0,92.94104102797431,647.5084992007895,84.0,2.3383469327344937,8.4,90.0,1.1
2026-04-08T11:10:35,4105.041512063052,88.19430111607232,93.49641794120487,219.2196191234442,-0.7169119047701629,1.869900292239591,90.0,1.0
2026-04-08T10:50:90,2963.3170289296254,270.0,37.24408902653566,157.55370270523306,-17.534371899236532,0.4831310444630472,90.0,1.2
2026-04-08T11:50:25,2096.534878884165,354.8375450239741,-91.0166986322294,166.86034915098594,24.312621041496918,10.710955566535432,290.38135670963464,1.9591661551469088
2026-04-08T10:40:30,280.0,133.05204543731492,-330.0,62.0,0.5906786982124621,-5.0,135.0,1.0
2026-04-08T10:50:85,2958.769413797966,280.0,-34.64576540011382,149.65316119530928,-15.964103864395682,0.40653521010659643,90.0,1.2
2026-04-08T11:50:40,2179.747077086209,112.53027247673477,211.26346638551365,163.347683392389,-20.90904453680116,-10.30341887558152,136.2732149808444,1.9681762144924613
2026-04-08T10:30:16,1760.0,137.36213727741148,-408.44143377461637,115.2,0.39525257458717444,-3.32,135.0,1.0
2026-04-08T11:50:95,1846.3957967983117,254.65964731240157,32.299130446486856,134.95416240621176,21.4002889246119,13.796772868506942,166.16116995770636,1.6769687246802985
2026-04-08T11:00:02,2952.332898636655,94.0,-23.879808903354427,140.41561785148082,21.42088654736098,-0.9838192502099719,90.0,1.2
2026-04-08T10:20:59,4929.964956861491,88.13031237481302,-64.36131466902563,187.62727242567055,1.7918887648279984,0.7347798363730482,90.0,1.0
2026-04-08T10:40:68,128.0,135.2802345931058,-368.0,39.199999999999996,1.560023135888572,-5.0,135.0,1.0
2026-04-08T10:10:99,891.0,94.04989189387263,621.9572944863069,99.5,-2.6640178243832695,9.95,90.0,1.1
2026-04-08T11:50:94,1980.1129651143501,301.98385996791353,33.2283589209502,140.77234924357825,-2.1610651812281034,-2.9940830617012697,104.36462088310519,1.6563780778682706
2026-04-08T10:10:11,99.0,90.55355428046289,632.0689746984664,55.5,1.6745468125134773,5.55,90.0,1.1
2026-04-08T10:50:87,2975.224283178582,276.0,-8.470528642675788,154.65454364559744,-22.156504206694926,-0.4517666566510541,90.0,1.2
2026-04-08T11:10:69,3808.3802810917323,86.59065156473832,78.47725041332592,215.3091508818766,1.4355321309528395,1.8258856160688541,90.0,1.0
2026-04-08T10:00:86,16.227447007779624,328.2143056212724,0.0,1.4392513400943274,1.9728616080310508,-1.642216277290701,39.18962083690602,1.0
2026-04-08T11:10:06,3989.7070022842704,91.20287127679332,35.00455594800178,253.0638981324157,0.11853437831078795,-1.2306487791536922,90.0,1.0
2026-04-08T10:10:15,135.0,91.46061439155889,512.0504623651555,57.5,2.9052544659395014,5.75,90.0,1.1
2026-04-08T11:10:88,4104.066875786204,86.77337644543125,67.72973496254028,231.11154884537873,-1.9878972674591835,1.2963137102868427,90.0,1.0
2026-04-08T11:10:83,3905.0775854645617,86.99508188237049,-30.96507775634001,237.23370182700725,0.2467305672266802,0.9121590827502484,90.0,1.0
2026-04-08T11:00:42,3029.9763578780603,174.0,-38.539627381957786,140.8062211876958,19.316245869593754,-1.136506490190512,90.0,1.2
2026-04-08T12:00:13,1456.4379404364477,89.72552766211649,-101.35041790768682,113.82199610258645,1.6526134193979143,0.4695453765988251,90.0,1.0
2026-04-08T10:30:83,755.0,136.71400123939378,-446.6936842916447,95.1,2.186605023220073,-4.66,135.0,1.0
2026-04-08T10:40:59,164.0,136.51828589414365,-359.0,44.6,-1.2385166697793397,-5.0,135.0,1.0
2026-04-08T10:40:03,388.0,136.75327897004752,-303.0,78.2,0.7585407662835371,-5.0,135.0,1.0
2026-04-08T10:50:32,2982.0329519085585,26.0,36.23150907794029,156.10980128529658,-24.672740812274107,1.2124033552542324,90.0,1.2
2026-04-08T11:00:68,2974.769054738183,226.0,-27.78963858572492,143.28440115170244,22.987776028664097,1.6275732177520963,90.0,1.2
2026-04-08T10:20:23,5041.698825471676,91.34403910666575,-34.19594353810855,165.16686342748412,-2.7642120039502758,1.4958805128758383,90.0,1.0
2026-04-08T11:50:27,1964.3898783810891,263.72091177668153,-198.37133705570574,158.10967603367945,10.908810240062671,11.111908426301536,225.33042993957926,1.908970859892465
2026-04-08T11:50:07,1974.8349826235622,114.32321202202681,66.58404107045362,174.5251807135762,-27.836843083939165,10.144606832069154,133.1686307245029,1.9393440545028184
2026-04-08T10:30:63,1055.0,139.13858623089908,-366.673194796006,101.1,-2.736911278142289,-4.26,135.0,1.0
2026-04-08T11:20:91,472.5387678228228,130.59844206094323,-132.52826631221166,51.10042768626632,1.392195886891555,-3.0,135.0,1.0
2026-04-08T10:40:79,84.0,136.8521150873171,-379.0,32.599999999999994,0.6027539799212818,-5.0,135.0,1.0
2026-04-08T11:50:48,1806.972130184509,340.5039837036259,119.1932429172889,134.08268189086212,11.278122281731541,14.972958140687652,25.235216267393884,1.7451564901131469
2026-04-08T11:10:66,4165.622338269471,87.17279983735347,45.950210751164434,216.57018136336072,0.7871872726216145,0.7970608377478805,90.0,1.0
2026-04-08T11:20:08,540.7727156709122,139.46717500930498,-129.80597079725712,51.52561819873915,-2.210910261524531,-3.0,135.0,1.0
2026-04-08T10:20:18,5005.297467546914,91.55817016105588,-43.243509514067505,166.41984512410204,-0.540288184588809,-0.7149726899241289,90.0,1.0
2026-04-08T12:00:34,1426.7905534001222,89.82809943489137,166.47360104799873,126.15631639903114,2.868885817362277,0.40735050939704287,90.0,1.0
2026-04-08T11:00:73,2970.030182305812,236.0,23.059274125761803,145.64635973727874,22.296059244342707,0.08923744100420716,90.0,1.2
2026-04-08T11:50:23,1913.2603989246704,175.0116111117098,217.06006842407214,142.87330855330157,-13.817269039580353,-12.791043393797125,143.18757280478388,1.935901441761216
2026-04-08T11:20:58,484.5930852408517,135.70388376535595,-188.52823967195704,50.30738097616353,-2.2685586975508945,-3.0,135.0,1.0
2026-04-08T11:50:84,1866.274110202857,153.76654467471005,-495.37247179255775,179.45103698729596,-29.902106306866994,-9.405577860143593,173.28822760168572,2.018774436251395
2026-04-08T10:50:33,2973.5106699640905,24.0,20.862968089240468,156.36721504767888,-21.232408939760344,1.645628947547935,90.0,1.2
2026-04-08T11:30:83,11777.527686561063,91.909769731304,14.640652350325695,205.1277129805185,-0.2614635946147268,0.035876902666169164,90.0,1.0
2026-04-08T10:30:34,1490.0,132.89674826105596,-411.7714873926163,109.8,1.7942717405231976,-3.68,135.0,1.0
2026-04-08T12:00:80,1535.5334476542253,90.11247168388955,28.893956767949447,117.14811270447709,3.3343710080874187,-2.135115308546606,90.0,1.0
2026-04-08T11:00:09,3003.2948290875297,108.0,46.284416663623006,151.13538953086692,23.02993018549368,1.0261961584329624,90.0,1.2
2026-04-08T10:40:85,60.0,134.9506293404309,-385.0,30.0,0.8482905015903031,-5.0,135.0,1.0
2026-04-08T11:10:51,3854.00563510353,90.60322509481418,-66.95465871300689,223.23962054565206,1.4881656386929087,0.01641806296084969,90.0,1.0
2026-04-08T11:50:45,2062.7489245155075,27.52222745176235,-261.0843939618116,122.09009599023437,9.977425498263194,14.968802163871342,252.8129101750338,1.9897805486367484
2026-04-08T11:10:38,4179.896311928603,92.27617862913961,86.17375941622544,214.4978950906513,1.3568157304609634,-0.07949647385259606,90.0,1.0
2026-04-08T11:40:21,229.68504673860343,243.15279074114017,180.0596749569891,103.44631266710198,1.1859996795353345,0.15867483725323295,135.0328000561989,1.0
2026-04-08T11:50:54,2126.1786521549457,57.72146119343129,192.56352531748348,173.29032247278192,23.00417371969872,-6.057403478873448,152.49849542777412,1.8903531150238022
2026-04-08T10:00:38,3.232912717611247,169.2197199236562,0.0,2.3563992002329504,-0.31646889786536203,0.6663110403392771,177.2953269892381,1.0
2026-04-08T11:40:39,211.8653204829315,92.43577831215161,96.96427830285558,94.20980977457016,-3.9263908135731462,-0.6428060968919249,199.4339603241392,1.0
2026-04-08T11:50:82,2069.2901490059844,200.0677648166267,-85.67098307908338,149.56222772260878,-10.464762383735895,3.9073624544061794,321.1613438833297,1.6927419501856202
2026-04-08T10:50:40,3021.33797746989,10.0,-0.19349762534622528,145.60629446101802,-22.981526651750386,0.9224260531566877,90.0,1.2
2026-04-08T11:10:71,3986.065038914834,89.8187470744257,-40.17099113863915,213.27162971636173,-0.3925712672460393,-1.9253970558157705,90.0,1.0
2026-04-08T11:20:85,493.4616668545865,133.98557688852685,-111.61436456443775,42.11949346731812,2.4743783029480975,-3.0,135.0,1.0
2026-04-08T10:50:36,2951.2857072949023,18.0,46.40344672232834,154.02641035680605,-21.37151807257304,0.6218470079540372,90.0,1.2
2026-04-08T10:10:58,522.0,91.79265032421426,649.2277839883621,79.0,0.39422622743230296,7.9,90.0,1.1
2026-04-08T11:40:56,235.74884178447482,156.30880624925774,100.12340228294636,111.27669945218676,4.383833419688784,2.522286322068938,81.02576986609083,1.0
2026-04-08T11:50:70,1836.5921330604529,355.64244204183666,276.6503836122058,178.4081973528467,-5.6618121162774955,14.749159493897466,86.42550454276649,1.778756399672896
2026-04-08T11:50:75,2042.5840341550452,291.36214106030616,-208.4849622121189,143.0776760298656,-0.3722435584452235,-3.144114229285867,299.59915992819657,1.863454500142704
2026-04-08T10:10:56,504.00000000000006,93.21329276394644,523.7386664355644,78.0,-2.7296191276325246,7.800000000000001,90.0,1.1
2026-04-08T11:10:85,3816.310668400665,86.15388246175654,72.85952290300236,251.6268567820254,-0.5882110934254263,-0.8377864581720811,90.0,1.0
2026-04-08T10:20:33,5060.9367388504925,91.79308415174113,93.13236039879052,177.68044357886777,2.303864592369461,-0.21700921478038282,90.0,1.0
2026-04-08T12:00:94,1578.0967054124176,87.06467477899751,100.09312760584544,127.4279360309365,0.03984327917301034,2.3747462255960547,90.0,1.0
2026-04-08T10:20:37,4944.131841522739,88.00961985174074,-77.19868011165431,172.8290400016705,-2.0600846776427497,-1.0751050722185442,90.0,1.0
2026-04-08T12:00:51,1418.0117687068275,90.06682124047168,-37.279878882844685,129.6663646695216,1.2418206672771746,2.79686840921641,90.0,1.0
2026-04-08T11:20:52,486.55528208637395,134.21138584885009,-53.85438113255307,52.25019606882837,-2.484402445403542,-3.0,135.0,1.0
2026-04-08T11:30:22,11578.419112718084,88.53997130619813,21.80777341079623,189.97557283734383,1.2987093495422024,-0.2554519375794113,90.0,1.0
2026-04-08T11:40:86,188.05399093217684,152.8339206950006,-4.311477003975341,116.18192073167496,4.478589980684548,0.7468899220718814,199.18392749572686,1.0
2026-04-08T11:40:85,211.54345145339096,319.27498272623416,19.378166188923984,80.40064823979735,-3.606243048773333,-2.08291998390985,30.843991121661283,1.0
2026-04-08T10:10:04,36.0,86.31489374810961,687.2552916180866,52.0,-1.2610721541083505,5.2,90.0,1.1
2026-04-08T11:20:73,548.8987092815934,139.83531874816393,-168.3647805177128,50.20688609553325,-2.0651476602047873,-3.0,135.0,1.0
2026-04-08T11:00:45,2990.0154868443506,180.0,-30.612319579439994,146.1905290007993,19.699927724576334,-0.5932946233827674,90.0,1.2
2026-04-08T11:30:44,11604.531952663876,90.37877082696978,-32.429859437615605,182.7544902686509,-1.0875214433369305,0.2714658825783909,90.0,1.0
2026-04-08T11:40:60,168.0002870590877,153.09351189603416,-71.65969840936555,89.96634092391324,-0.893372158901701,2.7423271388441997,302.40482234575427,1.0
2026-04-08T10:30:41,1385.0,132.58257438160004,-358.6743365888421,107.7,2.2538798228365104,-3.82,135.0,1.0
2026-04-08T11:50:93,1899.1849733839326,24.679172249295394,-249.4795615465799,173.50430884283696,-28.804459581673797,-10.164398837292719,74.54180598773915,2.0728245520073405
2026-04-08T10:00:72,13.271138373068764,284.5686220566048,0.0,7.156494443543476,0.7594864541717561,0.1528994556123724,345.68638074173214,1.0
2026-04-08T11:40:32,207.87988314884376,279.48606666718143,-134.88110681227568,110.57898759994636,-4.911471542685445,1.9898494066931418,258.5257419639109,1.0
2026-04-08T10:50:41,2961.607881579561,8.0,14.778583594096546,143.0788196595942,-24.23784257234354,1.8337367901293535,90.0,1.2
2026-04-08T11:00:26,2983.38919471626,142.0,-23.555012236061323,148.73443520367053,15.134961345320836,0.08054002131122884,90.0,1.2
2026-04-08T10:20:80,5022.280949032917,89.32015400847584,-82.7541831988077,199.39387876833146,-0.04515449579978892,0.8238562587132892,90.0,1.0
2026-04-08T11:30:16,11599.726120467914,89.66068484794279,-87.90993849811457,197.5727381953937,-1.3943415611923111,-0.1930240590820178,90.0,1.0
2026-04-08T11:00:40,3017.602477983939,170.0,-6.671864949247542,158.02053038978767,21.254794998727828,-1.7089984200331432,90.0,1.2
2026-04-08T10:00:76,15.54757530664318,74.0004008154448,0.0,2.527019846068132,0.3769571669429306,1.8703195420368433,241.0317271262802,1.0
2026-04-08T10:10:62,558.0,89.1253646549829,694.3769342821804,81.0,2.1692956046027128,8.1,90.0,1.1
2026-04-08T11:40:04,194.7646228819282,158.66398157166864,-59.14064516381683,92.10215261515998,-3.3372848056999405,-2.993748898127006,133.71567600825347,1.0
2026-04-08T10:00:88,18.847487272242027,96.82687329958765,0.0,12.667258793937192,0.0711363445016957,0.9142708686054322,210.3178052688851,1.0
2026-04-08T10:30:67,994.9999999999999,137.2169397406657,-373.68558557705506,99.9,-2.3265310527441283,-4.34,135.0,1.0
2026-04-08T10:50:11,3047.340105421327,68.0,47.39513087076507,142.885542095593,-24.31889840657702,-1.2296989625001542,90.0,1.2
2026-04-08T10:40:04,384.0,134.8232131444389,-304.0,77.6,0.26344520455395104,-5.0,135.0,1.0
2026-04-08T10:20:10,5000.977789111697,90.15894755744576,52.318465348821604,162.0208480368758,1.1763118026760297,-1.1560690382749383,90.0,1.0
2026-04-08T11:50:08,2171.3642311547856,230.24043373922592,-158.97571227929927,150.47033584566628,12.023425926203672,9.518557258200996,241.23524668967417,1.6973528970297562
2026-04-08T12:00:91,1520.8499140229062,92.30017668303923,36.98069123586211,125.55442453929454,2.794414660071209,-0.6188014407261493,90.0,1.0
2026-04-08T11:20:66,532.6067592636219,134.76471361259405,-81.21528338649816,42.77502089319454,-1.7119797325556538,-3.0,135.0,1.0
2026-04-08T10:20:58,5095.131798466602,90.84130849791588,71.40120772901872,187.64787817196057,0.28819394249711294,0.8591685877625785,90.0,1.0
2026-04-08T10:30:49,1265.0,134.58467361539567,-398.7162721980454,105.3,1.6829485245477862,-3.98,135.0,1.0
2026-04-08T11:00:93,2961.5339182644448,276.0,-3.9429356721668682,155.58277314573806,21.214154289144496,-1.8828310215579078,90.0,1.2
2026-04-08T10:40:69,124.0,133.2851114345523,-369.0,38.6,-1.3278313290697583,-5.0,135.0,1.0
2026-04-08T11:10:27,3888.322829449156,87.2737142935664,50.61160201545155,221.35341340571313,1.4272045905448012,-1.849772586608001,90.0,1.0
2026-04-08T11:30:53,11671.438682320255,89.98609489797758,96.34582695503212,213.03830718002322,1.5856631961686163,-0.07361344348149412,90.0,1.0
2026-04-08T10:50:25,3036.7918336983093,40.0,17.830628077576677,157.71550729827524,-16.162841659047196,-0.3777547332290232,90.0,1.2
2026-04-08T11:10:97,3947.0720730999587,89.7504514659649,48.30736612920302,251.76279214491774,-1.422523884939228,-1.2130046355159139,90.0,1.0
2026-04-08T11:40:75,196.8159989912521,94.93586144714725,39.385506982328735,82.08601583141551,1.2080654475744348,-1.6036874695536,278.1016165303356,1.0
2026-04-08T10:50:61,2953.651117266036,328.0,-44.69598529774748,151.15701924467507,-15.0185944087249,-0.49729729717705995,90.0,1.2
2026-04-08T10:00:78,19.422405181357234,255.81538086491028,0.0,14.87395419316585,-0.03444011688351312,1.9782582896522127,31.339736078776003,1.0
2026-04-08T12:00:72,1456.5492576445351,90.1212631513919,-20.529428054108394,118.66098100301093,-2.933603902686399,1.1398023648406683,90.0,1.0
2026-04-08T10:40:41,236.0,134.81081815489893,-341.0,55.400000000000006,1.9366358458780062,-5.0,135.0,1.0
2026-04-08T11:30:69,12214.325672330287,90.89745443471037,41.83548959307157,182.95062802774285,0.771422591129419,-0.38287063705796975,90.0,1.0
2026-04-08T10:30:42,1370.0,132.23446435003206,-359.3763079202098,107.4,-1.7253563223208457,-3.84,135.0,1.0
2026-04-08T11:40:54,153.64191821904004,139.5617444753092,-3.8129679885671806,92.60116474447292,-4.187008058120778,0.5890946781680091,276.86603498424165,1.0
2026-04-08T11:10:16,4142.0579346818795,90.19613704985066,48.641227924120614,254.2587279468862,0.187300872642028,0.6825363279606167,90.0,1.0
2026-04-08T12:00:36,1462.579226203265,87.1251179422022,-6.293017544831372,117.71976915722921,0.565771749325882,-2.9041355248021765,90.0,1.0
2026-04-08T10:00:81,9.473444821340811,186.2791162855467,0.0,11.285638500731633,1.91755791074343,-1.9981980042617926,42.93774389019983,1.0
2026-04-08T11:50:90,1835.8044411968215,263.275929732644,-275.5937823586295,122.36533632902406,-29.537778733988496,7.821713584595592,248.7009756343193,1.9469614818143532
2026-04-08T11:10:34,4014.1581513642186,90.88418727253531,50.16485744908812,252.41922365573888,1.7944792464924797,0.5383961757279039,90.0,1.0
2026-04-08T11:50:05,1943.7825498905163,11.394251268236761,-449.87978748059606,173.19194675884975,-27.211228580742343,-2.6045582850528994,187.15719024266895,2.0355280772307043
2026-04-08T12:00:92,1495.3194875437246,88.65797236540487,73.29347243452253,112.57063211379798,3.75016497241271,1.0638711548878774,90.0,1.0
2026-04-08T11:20:32,510.8804442581766,136.67257881324386,-103.40829811579745,42.81043195341319,-0.009159536963843973,-3.0,135.0,1.0
2026-04-08T11:40:12,233.36600331897472,28.20257891172878,-139.86861431437455,83.67889999235643,-4.545538779608128,2.048343708833877,131.2226773285502,1.0
2026-04-08T10:30:52,1220.0,137.0454035963463,-358.10860297310865,104.4,-0.024313782065528144,-4.04,135.0,1.0
2026-04-08T11:30:73,12457.968713809854,90.31225644408052,-88.46462992134299,197.36856428888143,1.3530673668751478,-0.7238707903758761,90.0,1.0
2026-04-08T11:10:44,3837.269031075528,90.60981916997979,41.772589081641286,229.13670348784356,-0.6077638003692072,1.6974946231858015,90.0,1.0
2026-04-08T11:20:50,478.8824457757365,133.74250617709376,-197.15687244571603,53.43156314316908,1.6717024858386509,-3.0,135.0,1.0
2026-04-08T11:10:54,3889.5210626064436,94.63045912001807,75.13080167307766,219.38062802819618,-1.547846963799227,-0.2632345427638474,90.0,1.0
2026-04-08T11:40:80,187.93913027598046,198.1910598122218,189.59405417673827,114.30165783653453,-2.3045026585652497,-0.8104149058703327,321.5832174851394,1.0
2026-04-08T10:10:77,693.0,86.19979552057922,564.3384932013355,88.5,1.6200537900457048,8.85,90.0,1.1
2026-04-08T10:00:75,26.93243028306125,304.7610859967637,0.0,1.0987800745050431,-1.1334103341715531,1.3310536116067158,348.34143778478284,1.0
2026-04-08T10:50:83,2976.989885534159,284.0,-15.199811520288598,147.34195805036765,-22.374129342523023,-1.2608185534095768,90.0,1.2
2026-04-08T11:50:17,2104.7543481798684,29.316460535635635,489.7708517722616,171.8303187124172,17.487730189629936,3.37389203847,215.48236783959769,1.7381382743537173
2026-04-08T10:40:92,32.0,134.60941350912736,-392.0,30.0,1.184357219115376,-5.0,135.0,1.2
2026-04-08T11:10:52,4120.470938015077,91.08258658753412,-41.41098024001471,242.10776038718166,-1.6461856789735987,-1.0968980205575356,90.0,1.0
2026-04-08T11:20:72,489.96970108795006,135.02115935466426,-193.10610917966162,42.6131259805409,0.28074738417045886,-3.0,135.0,1.0
2026-04-08T11:00:94,3010.69519470319,278.0,-34.711036230627286,151.97376611473055,20.20960163530365,0.914072270663933,90.0,1.2
2026-04-08T11:40:61,153.17842950079537,186.4303571142998,130.67222653638908,104.52765436022676,-3.8031075789996196,0.7627541490672831,236.0789237286407,1.0
2026-04-08T11:00:57,2967.450939952772,204.0,-1.65790656406989,158.7831770849542,18.062448770770967,1.9688804156854913,90.0,1.2
2026-04-08T11:20:49,451.93566542660034,137.34792279295675,-168.322358494311,54.314012988309614,-0.3803872378513349,-3.0,135.0,1.0
2026-04-08T12:00:40,1416.4866928710728,90.91482204844571,-155.04907870283807,121.5099109844881,-3.9871984568621386,0.5755868580548791,90.0,1.0
2026-04-08T10:50:91,2976.9786878453783,268.0,15.726641057343159,140.74691793537423,-19.528953680791346,-1.9603329349549736,90.0,1.2
2026-04-08T11:30:54,11583.890535518432,89.5658279441686,76.6687646223771,190.77837964516468,1.6724875302033646,-0.4399250935411434,90.0,1.0
2026-04-08T11:00:50,2958.3643000434404,190.0,38.41124791946868,147.58544998809532,19.614510548605793,0.3788121864560732,90.0,1.2
2026-04-08T11:50:03,1972.6211513563078,138.44977607389708,420.80312131937774,178.6403877716405,-17.624083799433535,-10.665009846822578,171.36793228798805,1.9649673479868375
2026-04-08T11:30:52,11508.453875367934,88.16581601253202,71.3990897443185,204.04754053262397,1.7219368866628044,-0.2931094647361705,90.0,1.0
2026-04-08T10:00:06,12.678660610947228,273.2634300966405,0.0,16.347192533286574,-0.10860393423871884,0.5921780445123925,9.374126080206576,1.0
2026-04-08T10:00:57,12.536801186534683,183.4917125301394,0.0,9.059551148470005,1.8253675804996532,1.859995469930538,244.53240921529795,1.0
2026-04-08T11:10:17,4064.8043301634834,89.08002106459831,-27.200717391335985,251.80705580056923,-1.8745714221675094,-1.7780923884496507,90.0,1.0
2026-04-08T12:00:93,1411.7700066432494,91.15936152942008,88.05424683737806,117.5001119482796,2.0893703962997545,2.7924112218411716,90.0,1.0
2026-04-08T10:10:20,180.0,90.84696258993225,521.4792297278414,60.0,1.481035392920127,6.0,90.0,1.1
2026-04-08T10:10:81,729.0,92.65428838966577,643.366717132875,90.5,0.28875753370401247,9.05,90.0,1.1
2026-04-08T10:40:38,248.0,133.54423755816853,-338.0,57.2,-0.39333917399725893,-5.0,135.0,1.0
2026-04-08T10:30:75,875.0,139.67363748906251,-380.8939477260211,97.5,-2.2840387478306976,-4.5,135.0,1.0
2026-04-08T10:20:31,5060.4061166824,90.1706400540279,-24.082878572525203,191.55041101406314,-0.2371585984374347,-1.1612764054918743,90.0,1.0
2026-04-08T11:00:83,3003.6272245466216,256.0,-22.161437469639512,151.4960811614988,15.068756471524855,-0.5585390126279286,90.0,1.2
2026-04-08T10:40:52,192.0,135.64051660923755,-352.0,48.8,0.05611092257460282,-5.0,135.0,1.0
2026-04-08T11:40:34,241.19208042309185,300.4531550398949,193.4702812075348,112.51665072214223,-2.4440840955090524,2.7940624915292815,2.522040175359055,1.0
2026-04-08T12:00:15,1414.6609468873928,88.2106172103988,79.27101473817584,129.48397861374838,-1.1873637629973883,1.2432254159814988,90.0,1.0
2026-04-08T11:00:69,3021.9168416701373,228.0,36.46838408261277,151.47901895476355,22.632552967180857,-1.2309067585714755,90.0,1.2
2026-04-08T11:50:34,2170.2317096917004,281.4773321393963,-132.05537177046165,134.65852956574543,-0.45931225409578147,-3.8091765766713515,339.3440165511616,1.7106941764108925
2026-04-08T10:20:24,4969.881331274301,88.63311246323367,58.65544073651148,188.54368515481156,2.757551292413291,1.3415977296446338,90.0,1.0
2026-04-08T11:40:68,239.1646940424382,166.29452094391087,115.88753276334432,118.66879465003922,0.21650039798667198,2.4683864171160526,283.0402538162031,1.0
2026-04-08T10:40:86,56.0,134.78454834229558,-386.0,30.0,-1.5873953130491967,-5.0,135.0,1.0
2026-04-08T10:30:33,1505.0,132.53990093054156,-392.5716020307166,110.1,-0.5212113838157046,-3.66,135.0,1.0
2026-04-08T10:40:10,360.0,136.80788670516765,-310.0,74.0,0.7474939100570488,-5.0,135.0,1.0
2026-04-08T11:50:64,1901.4699519021678,257.65186328206704,-21.513952870703804,163.61261984391848,6.392926734919342,-10.102679897971482,13.053206994013792,1.657897382007118
2026-04-08T11:10:20,4030.2036706368713,94.57712404141495,80.08094209552155,231.51376794709154,-0.9423099003045716,-1.3696350128937236,90.0,1.0
2026-04-08T10:50:98,3024.9162300263647,254.0,6.120089814822919,148.79893439735034,-17.44429042168581,0.29044003011592423,90.0,1.2
2026-04-08T11:20:56,502.25954832551656,138.787004411624,-74.1521630080549,40.9741436596413,-1.729604870634585,-3.0,135.0,1.0
2026-04-08T11:00:88,2998.2385275378624,266.0,47.97297851392747,157.0909358257056,22.74299120004411,-0.2707469449986526,90.0,1.2
2026-04-08T10:20:51,5046.944055267303,88.9839622749468,52.64848703630554,175.7765910833081,1.1174927109253066,1.9753307663849173,90.0,1.0
2026-04-08T11:10:59,4134.899415676802,90.23698013918874,-8.15211036375021,220.44853386227769,-0.7851004906538805,-0.7378494823986177,90.0,1.0
2026-04-08T10:00:56,17.850207442013442,189.99133453051314,0.0,23.867250980506604,-1.6673327246775278,-1.0765516158690094,39.555291802973166,1.0
2026-04-08T11:50:60,1894.3258646177594,212.4456965638671,-187.12873253423413,125.67824331866305,15.233676498058507,1.2774045618601946,75.27341462535001,2.0756044300694465
2026-04-08T10:50:57,2998.457451350904,336.0,39.467520538884884,141.02490450972346,-15.742932755514246,1.6412719001532445,90.0,1.2
2026-04-08T11:30:74,12109.625938699775,88.29718318352134,-29.648017551592744,219.11865603752216,0.5244751537220718,-0.5469330469192757,90.0,1.0
2026-04-08T10:20:20,4994.526977303033,90.52013260247298,32.319952630772974,165.8600218535431,2.912538090318816,0.7451866400616414,90.0,1.0
2026-04-08T11:10:05,4064.8373781608407,94.50820551191538,67.69847274000412,234.40093574216604,-0.3921864720632553,-1.1882069823041101,90.0,1.0
2026-04-08T10:10:84,756.0,90.77586230454239,500.90879890013457,92.0,-2.942860799849287,9.2,90.0,1.1
2026-04-08T12:00:14,1481.7306634614297,91.68647867415433,-55.059309206946295,111.1479686050158,1.208203067113347,2.5064574058194555,90.0,1.0
2026-04-08T11:50:98,2181.0305296784936,291.0472764801759,-327.327351561681,122.33100250518883,-6.908624691057106,-4.394916124716973,227.94794845883112,1.9384678803628834
2026-04-08T11:10:12,4049.802684977336,87.18621229380341,-80.40309060340576,257.25800323171165,1.95377651725939,-0.8666104680609616,90.0,1.0
2026-04-08T11:10:37,3998.239857904327,85.3432158162211,-55.14778401052018,231.15305330049142,-1.8390554836106334,1.8726964617876871,90.0,1.0
2026-04-08T11:40:87,158.90076251388268,341.7369477341371,-169.29100433997667,96.84052992404084,1.9642350097776342,0.7516862561061526,10.956398564488685,1.0
2026-04-08T10:40:74,104.0,135.32987649996642,-374.0,35.6,-1.5498826511901296,-5.0,135.0,1.0
2026-04-08T11:50:88,2076.2139304757984,314.95274723038335,104.68052808396772,144.19377080730237,4.191103957166966,-6.355939168875855,163.94581501674364,1.9859907787507416
2026-04-08T10:30:62,1070.0,135.7541901272231,-419.86601567437197,101.4,-0.37805776303713934,-4.24,135.0,1.0
2026-04-08T11:20:21,451.81229941655573,139.25173745169377,-102.32054560320944,45.03721253292748,1.4577200851499335,-3.0,135.0,1.0
2026-04-08T11:00:98,2981.891507559864,286.0,0.7534796894299802,146.69390571714723,24.088315195972697,1.4139709170239758,90.0,1.2
2026-04-08T11:40:28,233.07288608570806,236.84510578414617,-126.11898703950692,115.3294677440695,-1.8331326512354327,-1.4897842436326536,106.18633994720754,1.0
2026-04-08T10:10:18,162.0,92.00312216204077,585.6263389383498,59.0,2.1632913305983354,5.9,90.0,1.1
2026-04-08T10:20:81,4977.590109535556,88.5409926863021,83.15806920683556,167.11767035559672,-2.8614426945619993,1.1923214465013499,90.0,1.0
2026-04-08T11:40:27,198.5298678223833,55.887843453808735,-193.99108047050794,111.30623193034033,3.721423905347759,1.7692628485626267,171.36417099919734,1.0
2026-04-08T10:50:79,3031.3019359274067,292.0,-27.34302247950331,140.53404402440833,-22.436387155835632,0.7198536971547513,90.0,1.2
2026-04-08T10:40:35,260.0,134.81171695108245,-335.0,59.0,-1.9411816340500634,-5.0,135.0,1.0
2026-04-08T11:20:70,515.853072644328,133.2666910097881,-163.95439645087592,51.88740009129534,-0.15207469027023102,-3.0,135.0,1.0
2026-04-08T11:30:82,12469.349051845662,88.5674055868079,79.59389991965034,186.49710217306765,-1.0004077622597247,-0.7409125907185417,90.0,1.0
2026-04-08T11:00:20,2997.9730490697666,130.0,-26.277114437961636,145.9857935200789,23.621563923727294,0.8554836889373516,90.0,1.2
2026-04-08T10:10:22,198.0,86.06870546559618,670.4318196730685,61.0,-1.1780097941817318,6.1,90.0,1.1
2026-04-08T12:00:71,1405.6113094581435,92.05841121961925,128.63749406661685,124.52860631701138,-3.701458256388542,-0.07949081874844044,90.0,1.0
2026-04-08T10:40:58,168.00000000000003,134.27234172368554,-358.0,45.2,-1.971831772295591,-5.0,135.0,1.0
2026-04-08T10:10:74,666.0,89.92367735847249,614.1140428684051,87.0,0.8115963085104285,8.7,90.0,1.1
2026-04-08T10:10:53,477.0,85.65371858120015,572.2447221486048,76.5,2.4141929593517926,7.65,90.0,1.1
2026-04-08T10:20:46,4975.032474270702,91.01868228512454,-95.51926797264426,162.59132201508675,-0.5116746910365721,-1.8521255518936548,90.0,1.0
2026-04-08T11:40:46,220.80673156352566,355.5223935545415,-46.52789058068572,88.180549026426,4.577973154129456,-0.44297459228930336,34.81726501952916,1.0
2026-04-08T10:20:27,4966.66686159816,89.90655593040279,-59.6460186620001,193.76544609914816,-0.5571770811374028,-1.0809797234327614,90.0,1.0
2026-04-08T12:00:77,1411.4162861756215,87.79363240336204,-100.51712598598046,110.67154361976972,-3.944937773457921,0.3349237293771643,90.0,1.0
2026-04-08T11:40:78,177.30957102851877,41.77399398361306,76.70104354516764,110.73755493932968,2.028779822594629,1.4986353947669455,79.122881566099,1.0
2026-04-08T12:00:18,1422.1582901860936,87.25922791795433,49.99859543093268,116.68176594505825,2.3283153852316474,2.3315136855886625,90.0,1.0
2026-04-08T11:10:67,3884.5809458374274,91.47930740510436,0.14414422246285596,235.99826399028314,-1.576163980701204,-1.8746255348260408,90.0,1.0
2026-04-08T10:40:49,204.0,133.53667933281264,-349.0,50.6,-1.3747782091372205,-5.0,135.0,1.0
2026-04-08T11:40:20,201.74639026945562,96.87258523710747,-187.32418116132993,94.40154627702947,-3.8784370817485225,-2.4920797882022683,333.6626760079196,1.0
2026-04-08T11:30:32,12141.12729335339,88.86203283859855,8.526376849988154,210.76718482998146,-0.6691897593047593,0.6075272664410278,90.0,1.0
2026-04-08T10:40:66,136.0,135.70077064684583,-366.0,40.4,-0.5608229957074511,-5.0,135.0,1.0
2026-04-08T10:40:84,64.0,135.01009593361124,-384.0,30.0,-1.3086812887684771,-5.0,135.0,1.0
2026-04-08T11:30:66,11898.197847364292,89.69431063471193,24.208742973556213,180.82311043377993,-1.4383260489375385,0.24501006136043868,90.0,1.0
2026-04-08T10:00:12,29.510260995730594,338.7853682678544,0.0,4.4777968553865595,0.32784838389122495,0.3970493532933155,293.69004493599647,1.0
2026-04-08T10:30:98,530.0,133.38471694625107,-377.3071691818657,90.6,-0.0446067892279296,-4.96,135.0,1.0
2026-04-08T10:10:83,747.0,90.38287879939274,609.528811867957,91.5,-1.2295517791002706,9.149999999999999,90.0,1.1
2026-04-08T11:30:01,12415.295552742586,89.98615257394232,56.46605773224843,198.56005405396175,-0.09767931652570061,-0.15589136099057876,90.0,1.0
2026-04-08T10:50:53,3006.3484342614174,344.0,40.72384457592884,159.26273619405484,-23.037851717934462,-0.34775077217567896,90.0,1.2
2026-04-08T11:10:29,3863.8305755909196,94.28264214453479,-47.47986543542637,238.13542094022628,0.7525139946391373,1.7687303658983766,90.0,1.0
2026-04-08T10:30:57,1145.0,134.6537765553571,-385.2074029720235,102.9,-0.48730333314291485,-4.14,135.0,1.0
2026-04-08T11:20:59,480.65911315512403,137.7792832460646,-162.27794773758853,49.24007939619733,-0.23798869230897024,-3.0,135.0,1.0
2026-04-08T10:00:11,14.579703795704042,245.28424014873104,0.0,23.300732404017015,1.7289993722024475,0.7438724234626855,342.757349117336,1.0
2026-04-08T10:20:95,5003.892103599753,88.32822693267842,62.05812328656904,194.81234137394776,-0.19164317407066722,-0.6548088327059807,90.0,1.0
2026-04-08T11:30:62,12106.140452114687,88.38990151671477,-20.70834929700645,181.07203409499908,1.4877319027593954,-0.4348563357108055,90.0,1.0
2026-04-08T10:40:33,268.0,136.43984896165296,-333.0,60.2,-0.11174399389128808,-5.0,135.0,1.0
2026-04-08T10:10:86,774.0,92.88391089995807,522.8990674444753,93.0,-2.050034169404121,9.3,90.0,1.1
2026-04-08T11:20:39,517.9490532329305,133.3413131888067,-149.30450523022407,48.821966117528646,1.7825464280584766,-3.0,135.0,1.0
2026-04-08T12:00:59,1579.6089863777227,89.93250547042446,-134.35134037234621,126.2613196642464,-0.9275137281383499,1.9896905047791513,90.0,1.0
2026-04-08T10:30:56,1160.0,131.8838739344818,-409.4024507060625,103.2,1.738638644362494,-4.12,135.0,1.0
2026-04-08T10:00:00,10.462587387801465,295.72402201021305,0.0,17.277562405134017,1.5403804416153428,-1.2292935153084685,111.89681151179404,1.0
2026-04-08T11:20:79,516.1855857735987,130.59980338680268,-109.13743434568951,52.14727183285401,-0.27661400496747834,-3.0,135.0,1.0
2026-04-08T11:40:08,178.4829119835265,314.5934713866017,190.29622414894084,113.6788268650455,-3.2956917165534128,0.41805817983925087,186.75842505421528,1.0
2026-04-08T10:00:46,4.718243021060485,29.62621419859914,0.0,18.125540785930603,1.2896308845519173,1.782744625087926,99.75806178535389,1.0
2026-04-08T11:50:06,2041.7258123096951,252.3806211627284,-361.2752043110261,127.25251896575313,-12.268457128919799,-2.8223889783106166,290.09618300249116,1.9705221650822171
2026-04-08T12:00:81,1597.7899071805894,90.13883370212345,-86.0304138427304,120.47333154589548,2.9189550378302958,1.984936321851606,90.0,1.0
2026-04-08T11:10:11,3908.050830448779,94.34437117154853,82.50489567786775,216.69913069116214,1.3963690375270703,0.40691550720462155,90.0,1.0
2026-04-08T10:10:28,252.00000000000003,85.84209548368504,618.5777693413417,64.0,-0.3648638517905791,6.4,90.0,1.1
2026-04-08T10:00:63,2.8896473565064253,323.79675439796415,0.0,13.16244481555526,0.15678869911939586,-0.4259299370341143,62.54666343516456,1.0
2026-04-08T11:40:59,200.66296692516846,58.127625627387246,-188.40526640898094,116.03390987303331,0.8091925671448568,-0.14614349995198772,344.29616786070176,1.0
2026-04-08T12:00:28,1479.2893778668051,92.15544083216976,-199.8908412250048,113.77084105105344,-3.003136587091058,-0.380534650291219,90.0,1.0
2026-04-08T10:20:45,5046.841870226895,88.30323079769009,-28.548014262489673,196.9411321825283,2.5332004837731112,1.6278037350362093,90.0,1.0
2026-04-08T12:00:58,1458.8262357948036,89.29851510026648,128.4433359412452,105.22881137648085,0.19550487445738884,0.7145257342499152,90.0,1.0
2026-04-08T12:00:74,1430.6357555572467,92.15847614837205,64.2758462264635,122.40242084850667,1.7131387754847305,0.8718029687993609,90.0,1.0
2026-04-08T10:30:81,785.0,135.02139061634207,-366.0751440618865,95.7,1.397918400649873,-4.62,135.0,1.0
2026-04-08T10:40:54,184.0,133.57327934017192,-354.0,47.599999999999994,0.5592070259807369,-5.0,135.0,1.0
2026-04-08T10:10:42,378.0,93.70856294425852,698.2230793380307,71.0,-1.689347184376234,7.1,90.0,1.1
2026-04-08T10:00:21,19.525592622185375,112.65227644135976,0.0,0.2627100338739502,0.46120704467306206,-0.7741798847743326,1.7774265246833032,1.0
2026-04-08T11:50:71,2156.3028993545645,269.68856203004236,-250.5398317548848,173.25422948408388,-15.862043668059354,-11.885821847861362,232.63470432787346,2.0164285484203432
2026-04-08T10:30:11,1835.0,139.63656194657943,-402.87424856612324,116.7,1.2055653209759507,-3.22,135.0,1.0
2026-04-08T11:10:18,3978.691958858884,93.00523654896507,-2.232433720776527,224.89834681044084,1.2795333710008099,1.5044634271820452,90.0,1.0
2026-04-08T10:50:46,3016.329345966072,358.0,42.97582940688899,148.34334074111362,-18.889281914259684,0.6024929121392719,90.0,1.2
2026-04-08T11:30:89,11775.902567939946,88.49742886220726,51.11856837225426,200.4965178374093,1.4345832283544446,-0.3697850380811005,90.0,1.0
2026-04-08T11:30:12,12391.178560119233,89.02900913469195,-46.06454106705509,206.70083128562845,-1.158962493753605,-0.14042926005980938,90.0,1.0
2026-04-08T10:00:35,2.2959797471531243,264.25324184067136,0.0,12.39220713037641,-0.8647187139505301,-0.469789714475215,113.38904350500947,1.0
2026-04-08T11:50:44,1876.2729129489503,52.49427376395728,-261.5023142954369,171.3485366408748,-7.59898014442296,-1.2212341405123706,157.8600478628386,1.8306842672576273
2026-04-08T11:30:04,12455.604891953271,91.76393152004023,-66.79777161398087,208.49998114950915,1.0369805074136758,0.203888707216634,90.0,1.0
2026-04-08T11:40:25,189.06002705763734,295.9588443730212,1.5172591682620293,107.93623119860196,-0.27287907987633275,-2.7646834859152545,34.754234044374506,1.0
2026-04-08T10:30:04,1940.0,135.18801727276764,-406.7120430005006,118.8,1.8324742455517242,-3.08,135.0,1.0
2026-04-08T10:50:16,2984.2271337676416,58.0,-27.28890131202878,147.95170766552377,-21.96065679195688,1.9734147760767606,90.0,1.2
2026-04-08T10:30:90,650.0,134.99365516255781,-432.2836245431018,93.0,-1.8068948634872137,-4.8,135.0,1.0
2026-04-08T11:30:08,11817.450731762256,88.44101958720795,27.735281951110665,189.66823618997003,0.38235776304816627,0.505652897659358,90.0,1.0
2026-04-08T10:50:92,2965.3641892592277,266.0,-28.40343318563796,148.18883579576328,-23.75201354221035,1.1205787924233626,90.0,1.2
2026-04-08T10:10:96,864.0,88.31637240454047,539.1520001239264,98.0,-1.9749676643611924,9.8,90.0,1.1
2026-04-08T11:10:21,3848.1466048028215,93.48106077990943,89.84610624902109,227.22535374663394,1.8812521175307082,1.179145995839042,90.0,1.0
2026-04-08T10:00:50,22.594071799835266,76.9220764136939,0.0,12.92281943117683,1.6449518936429617,-1.6045185794567987,259.51235472899594,1.0
2026-04-08T11:00:38,2992.880403659952,166.0,-7.750212075998455,156.03752571208236,20.33650567228684,-0.5472679706658958,90.0,1.2
2026-04-08T10:00:27,29.60399839787526,222.73850519990737,0.0,18.324948185217735,1.1134800552985378,1.1110257298806796,38.83964190728509,1.0
2026-04-08T11:00:76,2997.897371047641,242.0,-0.9784833608586254,143.6401210786333,21.306109408478534,-0.30717643839939335,90.0,1.2
2026-04-08T11:30:49,11895.561108986463,90.04521829698695,73.93557378897253,184.86247514490836,1.3634132225326772,0.08856954162754715,90.0,1.0
2026-04-08T11:50:53,1814.9285335113061,127.74671967386098,125.78633674504204,132.27731416581022,-3.395119311872893,-0.19078925187545082,329.02214616611053,2.061379522621009
2026-04-08T10:30:93,605.0,134.80727174091805,-350.5305296743242,92.1,0.9366642591373586,-4.86,135.0,1.0
2026-04-08T11:50:69,2002.3927841042312,0.5787444781709805,33.046033536974505,158.8927664974167,17.808929592990623,2.573706386819179,194.65781404241918,1.6552151341396595
2026-04-08T11:50:92,1947.9537189482019,313.69704802068617,107.81481166073706,146.29896750684168,3.7687385881679702,8.962912901719754,60.62071486752167,1.7230538950680732
2026-04-08T12:00:05,1501.2159332411786,89.13491606536556,23.460761109514237,118.43764097704188,3.0128531343518636,-0.5238402009248837,90.0,1.0
2026-04-08T11:20:25,536.9018434788768,135.11870412766064,-152.38484718927387,40.2270252669194,-2.63032344562461,-3.0,135.0,1.0
2026-04-08T10:30:10,1850.0,133.70691343122508,-351.06952001560006,117.0,-0.6958260557613345,-3.2,135.0,1.0
2026-04-08T11:10:15,4078.444774714545,88.02613654819703,5.061074458193545,221.21803925852154,0.7034519973921958,1.5494926667684923,90.0,1.0
2026-04-08T11:30:96,12197.389968039604,90.61827448204258,-17.087258375272782,190.64529619779722,0.9699175922264844,-0.6521490291786853,90.0,1.0
2026-04-08T11:10:61,4157.174355126199,85.58604204708168,1.6923556964151203,239.81213205840152,-1.5341150115178168,-1.7547533521451655,90.0,1.0
2026-04-08T10:00:41,12.479631189399967,32.36192781406103,0.0,11.237488008464979,-0.865499858569323,-0.5278514311789095,239.0386421120985,1.0
2026-04-08T11:10:46,4067.548032187375,93.97791437842815,-36.27031334087747,229.22097504734256,-0.23593323323072513,1.3025714308584182,90.0,1.0
2026-04-08T10:00:54,9.925741092597729,214.28457769164055,0.0,7.055957533444094,-1.2991224792409422,1.9156248403761507,21.499768478673214,1.0
2026-04-08T10:50:30,2994.19528884487,30.0,-34.82880607309359,145.85982189879067,-23.454018031975124,-0.26897888084224286,90.0,1.2
2026-04-08T10:00:95,16.690973705693715,342.346761155695,0.0,21.3614877263492,-0.5563074787140248,-0.9452451845705041,108.28953657054782,1.0
2026-04-08T10:40:11,356.0,135.94258986118103,-311.0,73.4,-0.6047332165800658,-5.0,135.0,1.0
2026-04-08T10:00:64,7.424344518350836,51.59283896548854,0.0,19.851667479373496,0.8774607410069155,0.08394700191769866,276.45382806433287,1.0
2026-04-08T11:20:01,513.7409033043249,132.71711428536068,-177.24082590855556,54.02669069572017,0.17032636532827627,-3.0,135.0,1.0
2026-04-08T10:40:94,24.0,136.2431963021017,-394.0,30.0,-1.0043451429961956,-5.0,135.0,1.2
2026-04-08T10:00:67,23.543649573056605,148.2619520065001,0.0,13.31423692002239,-0.49110957758557205,1.8387782957162702,246.29886449475418,1.0
2026-04-08T11:20:29,459.51283415252703,132.2338686492492,-74.07821887096958,44.838097807204655,-0.8724905409927075,-3.0,135.0,1.0
2026-04-08T11:40:30,174.0383126384258,107.12120336668954,184.8499243197852,101.34369691032975,3.846292430176728,-0.5038161898367672,307.44052755664234,1.0
2026-04-08T11:30:67,12408.605982386032,88.96468781462602,-77.374767662715,187.2678824344993,1.850787826690194,0.9973414425070757,90.0,1.0
2026-04-08T12:00:46,1438.799754196703,87.05415765447475,-54.76981576399339,106.52943198996361,3.2036453683431,-1.1482605890002984,90.0,1.0
2026-04-08T10:30:96,560.0,133.26245959566796,-449.15765100593194,91.2,0.2942787081433864,-4.92,135.0,1.0
2026-04-08T10:50:77,3022.310978653647,296.0,-31.98460086866144,157.13498564446428,-21.178196720577017,-0.830935482681014,90.0,1.2
2026-04-08T11:50:86,1882.9492956145773,71.325181604942,-271.7155312638363,177.57385055079328,27.94778486969465,6.267579943162282,148.32342250647173,1.9877282386512827
2026-04-08T11:50:43,2099.194601682507,269.72381648055193,373.70228898486096,150.54229109590648,-27.426445407220477,14.428670305777413,78.63647847655011,1.8447058255473066
2026-04-08T10:10:03,27.0,86.62043783053117,532.5582417232087,51.5,-1.9109642769573794,5.15,90.0,1.1
2026-04-08T12:00:63,1410.3569901921767,87.09357377913678,-139.90102295690488,115.83047514232805,-3.0296643712393916,0.7676629689466408,90.0,1.0
2026-04-08T11:20:67,468.2858578003582,138.70022605893197,-108.28711400055474,43.775168220996775,2.786825540851547,-3.0,135.0,1.0
2026-04-08T11:00:10,3037.6147081815616,110.0,14.138192994517368,153.63974988597005,21.063883910983282,0.2652317331113321,90.0,1.2
2026-04-08T10:50:82,2999.4687392867336,286.0,8.947631888611383,150.52076981763767,-19.0556318595997,0.32755840033288175,90.0,1.2
2026-04-08T11:10:89,4142.390600642179,94.51670039304962,-47.589694357844834,230.19120462895756,-1.588097815360797,-1.3148004984833501,90.0,1.0
2026-04-08T11:00:17,2974.9467887359365,124.0,-25.205756412565318,159.4808095282412,17.050280750686298,-0.21399333838215684,90.0,1.2
2026-04-08T11:30:99,11912.13704177769,91.72920229334264,21.587165323502106,216.13972820213556,-1.8731859844669039,-0.9694272398069026,90.0,1.0
2026-04-08T12:00:75,1511.0237489742515,92.16283930359288,15.981039863473967,117.25155773435213,0.8725855517904559,0.046699367806161796,90.0,1.0
2026-04-08T11:30:07,11631.918205196742,89.43912327291554,-45.26322365758253,192.24162572607852,-1.5895745068803744,-0.8537392913564803,90.0,1.0
2026-04-08T10:10:71,639.0,85.2339671951506,529.3657683081794,85.5,-0.879724094378675,8.55,90.0,1.1
2026-04-08T11:40:94,182.10978552338855,11.984451607108841,119.8709662245675,85.99907591397071,3.0863411864524792,2.537464468066755,23.72223474747947,1.0
2026-04-08T11:40:79,158.49313603278716,151.4831927312094,-47.91153837990089,112.5957710671152,1.9431515851415533,0.6176918701315044,73.18022080037906,1.0
2026-04-08T10:20:70,5090.6949862328665,89.36093626819626,48.21269018540167,188.5666361803956,-0.22402894735565138,-1.3844506696570043,90.0,1.0
2026-04-08T11:50:36,1828.0006796528064,252.1318850322317,-81.3399557107831,130.73668728933228,-14.927943429348964,3.1835195227800526,292.60373572156107,1.6987982251432034
2026-04-08T10:30:97,545.0,130.23780468172697,-380.0743278505034,90.9,-1.5726194698937466,-4.9399999999999995,135.0,1.0
2026-04-08T11:50:12,2096.908561755174,275.4617212775882,489.2801319954623,127.67690884665572,7.105252058443362,-14.560242939788301,288.89723509112076,1.8493598839208518
2026-04-08T11:40:33,209.53517406670574,168.64637290749982,63.86983430353001,106.23977849022302,2.351492062399231,-1.5348526233457565,10.930085229626538,1.0
2026-04-08T10:50:67,3047.768252157905,316.0,34.07030781465468,153.56091807696782,-20.07694105010425,-0.5455953078182625,90.0,1.2
2026-04-08T10:50:76,3044.5670120750174,298.0,-20.920654753773427,151.46320297792516,-17.248506304759438,-0.672081999989838,90.0,1.2
2026-04-08T11:30:92,12297.306594834892,88.61241503350999,-30.402084338030974,219.61513235141058,-0.730551467154763,-0.9025117046711364,90.0,1.0
2026-04-08T10:30:36,1460.0,132.33094610563234,-389.41580917715277,109.2,-2.922351873228867,-3.7199999999999998,135.0,1.0
2026-04-08T10:20:55,4934.1266492249,88.0520307554502,19.177994875248388,160.02179443180185,1.17419616504018,1.0499644054676223,90.0,1.0
2026-04-08T11:20:86,471.35276209487716,139.721389887086,-75.74076615265143,41.76691934015851,2.454005123959072,-3.0,135.0,1.0
2026-04-08T11:10:82,4050.4319300688235,89.05013508139423,89.04446946159013,233.0545655776437,-1.6291261102835604,-1.58767972021798,90.0,1.0
2026-04-08T11:40:95,213.49439319863052,235.46586397305492,-40.65550185106278,110.21825675364256,0.933508465020938,-1.1624054205403977,152.87800726849431,1.0
2026-04-08T12:00:23,1475.1328280969844,88.12462291474968,101.8089862987868,126.97365179734862,1.6141306190726166,0.665113265320568,90.0,1.0
2026-04-08T10:10:25,225.0,89.07210868480479,693.4360933591007,62.5,-0.5840462143844407,6.25,90.0,1.1
2026-04-08T10:30:60,1100.0,138.3956283582518,-414.3712113739959,102.0,-2.276282104232629,-4.2,135.0,1.0
2026-04-08T10:10:37,333.0,87.2675521337727,593.6709221641664,68.5,-1.3770276616141428,6.85,90.0,1.1
2026-04-08T12:00:85,1422.9575707135798,88.2771063861788,156.4951085680924,126.89517168936116,3.6291858637615393,0.3665055952299525,90.0,1.0
2026-04-08T11:20:55,533.2341237697686,130.77703993377924,-133.7317900946929,44.69939696363902,0.9164455024813658,-3.0,135.0,1.0
2026-04-08T10:10:12,108.0,93.1433629256399,592.342231199815,56.0,-1.3633234622941133,5.6,90.0,1.1
2026-04-08T10:10:00,0.0,93.74884921794505,674.4578097560916,50.0,2.5541274363847686,5.0,90.0,1.1
2026-04-08T11:40:53,240.68000639255243,57.52541982915612,-7.5573837908323185,100.69852961777329,-4.477688750970858,2.060549141465165,216.39201068077855,1.0
2026-04-08T10:50:54,3021.6344553917065,342.0,-48.06696404838375,146.5648085642446,-22.432474115877692,0.855737973110895,90.0,1.2
2026-04-08T10:00:31,0.30184803926162407,276.2065281372484,0.0,20.720547218407706,0.8553589777069335,1.5128333247998054,4.489193714030288,1.0
2026-04-08T11:30:91,11681.445788368896,90.61095327117299,-96.4430898945938,196.6138082900569,-0.8103177224282594,-0.19332056360982275,90.0,1.0
2026-04-08T11:40:13,248.37113499248628,165.87725255341877,37.01772015360612,108.42428915839486,-1.1889946687726516,-2.60234990567519,145.68889666589953,1.0
2026-04-08T10:30:08,1880.0,135.30262611560366,-399.32959591291336,117.6,-1.7598330379519336,-3.16,135.0,1.0
2026-04-08T11:10:65,4066.8156015734653,86.7354476255445,-48.51665835280148,218.65136191708828,0.8892484543731833,1.1898368445192977,90.0,1.0
2026-04-08T11:00:18,3002.370858739315,126.0,46.505136506134605,152.4938816600132,18.979692591926046,0.1002616434342154,90.0,1.2
2026-04-08T10:20:96,5047.6861757332645,90.31937615321124,41.5876322168661,199.782494697774,0.3031192548028634,-0.05038363996108686,90.0,1.0
2026-04-08T11:40:36,203.5294504202076,182.96616695478744,26.46553303892736,94.76114177096142,-1.5939420383447453,-2.732703521632203,25.469883096381448,1.0
2026-04-08T11:40:17,228.88136686397863,312.678219952448,-45.86441359360148,117.8858277555079,-3.1283461957120773,-1.1056238408664765,219.1677910944401,1.0
2026-04-08T11:40:63,222.50552129588203,264.27246506380624,-117.47551730013544,119.67485502596895,0.5574958146903288,0.6107928121163706,190.78664219731317,1.0
2026-04-08T10:50:42,2958.896458889517,6.0,-43.424612695362505,153.0924533715657,-15.266747956908237,1.347178762262887,90.0,1.2
2026-04-08T10:00:17,21.2077778247796,270.55509217567715,0.0,0.9099972191815103,1.413335358234999,1.8568768033646794,71.38206311237758,1.0
2026-04-08T10:40:12,352.0,135.54493814138453,-312.0,72.8,1.2423893402320663,-5.0,135.0,1.0
2026-04-08T11:30:76,12070.612929643014,88.5128736630012,-18.37941438437653,207.37848488761463,1.0276961666319515,-0.8592259481940077,90.0,1.0
2026-04-08T10:00:10,7.163693073658662,168.93376361516297,0.0,11.025376920165655,1.5098987008606568,-0.40419250275449947,60.96523391721675,1.0
2026-04-08T11:10:31,3992.280935567045,89.78618915256386,19.49455212539408,230.3793495288795,1.7339569469683784,-1.936817733228665,90.0,1.0
2026-04-08T11:30:90,11766.285217725037,89.54637552313115,1.098667016196984,182.16705897704614,-0.9267163664392495,-0.22059931240813468,90.0,1.0
2026-04-08T10:00:22,16.790365948787684,13.38860673118727,0.0,0.30116311979374033,0.8084159151579842,1.2492568759745453,118.02371205238934,1.0
2026-04-08T10:50:37,3011.3765636620074,16.0,-46.479040792793256,151.40476782510473,-21.701691806148773,1.0713037336007152,90.0,1.2
2026-04-08T11:20:78,468.14542982452946,132.13132378435677,-172.3743113090566,51.65068445788429,-2.384734808510607,-3.0,135.0,1.0
2026-04-08T11:30:77,12486.410775786178,88.5938509670896,44.6870302735679,218.90459540229637,0.25209412263144637,-0.3242096419966567,90.0,1.0
2026-04-08T11:00:77,2994.8384972320405,244.0,-3.576976323810385,147.63793824643292,22.315205548496955,0.6976948805902801,90.0,1.2
2026-04-08T10:20:77,5002.096384718538,89.6366850341755,-57.887317502450685,199.90779546620007,1.282404188107063,1.8393981636788328,90.0,1.0
2026-04-08T11:00:80,2980.151119787178,250.0,16.322569824755206,154.36924101290478,16.96315173704168,-1.3778177000047775,90.0,1.2
